[
    { "id": 1, "lat": 20.5937, "lon": 78.9629, "title": "(India)" },
    { "id": 2, "lat": 28.6139, "lon": 77.2090, "title": "(Delhi)" },
    { "id": 3, "lat": 13.0827, "lon": 80.2707, "title": "(Chennai)" },
    { "id": 4, "lat": 12.9716, "lon": 77.5946, "title": "(Bengaluru)" },
    { "id": 5, "lat": 18.5204, "lon": 73.8567, "title": "(Pune)" }
  ]
  